City_ID,City,Country,Date,Lat,Lng,Max Temp,Humidity,Cloudiness,Wind Speed,Current Weather,Rain inches (last 3 hrs),Snow inches (last 3 hrs)
0,Busselton,AU,2021-09-15 16:29:01,-33.65,115.3333,51.08,77,99,20.83,overcast clouds,0,0
1,Westport,US,2021-09-15 16:29:01,41.1415,-73.3579,85.15,80,1,3.0,clear sky,0,0
2,Severo-Kurilsk,RU,2021-09-15 16:27:09,50.6789,156.125,48.16,89,14,8.3,few clouds,0,0
3,Tiksi,RU,2021-09-15 16:29:02,71.6872,128.8694,39.16,93,100,7.83,overcast clouds,0,0
4,Kununurra,AU,2021-09-15 16:29:02,-15.7667,128.7333,75.18,64,87,4.61,overcast clouds,0,0
5,Rovaniemi,FI,2021-09-15 16:27:45,66.5,25.7167,42.21,81,75,3.44,broken clouds,0,0
6,Mar Del Plata,AR,2021-09-15 16:24:06,-38.0023,-57.5575,64.42,39,0,20.71,clear sky,0,0
7,Provideniya,RU,2021-09-15 16:25:06,64.3833,-173.3,38.41,93,100,7.45,overcast clouds,0,0
8,Naze,JP,2021-09-15 16:29:03,28.3667,129.4833,79.07,84,100,15.05,overcast clouds,0,0
9,Sharjah,AE,2021-09-15 16:24:14,25.3573,55.4033,94.98,62,0,3.44,clear sky,0,0
10,Hermanus,ZA,2021-09-15 16:29:04,-34.4187,19.2345,58.89,69,24,6.69,few clouds,0,0
11,Belaya Gora,RU,2021-09-15 16:29:04,68.5333,146.4167,35.76,89,92,6.35,overcast clouds,0,0
12,Vila Franca Do Campo,PT,2021-09-15 16:29:05,37.7167,-25.4333,75.61,62,16,2.01,few clouds,0,0
13,Rikitea,PF,2021-09-15 16:29:05,-23.1203,-134.9692,73.6,72,50,16.35,scattered clouds,0,0
14,Kiunga,PG,2021-09-15 16:29:05,-6.1219,141.2906,72.01,99,82,2.73,broken clouds,0,0
15,Cabuyaro,CO,2021-09-15 16:29:06,4.2817,-72.794,88.48,55,24,4.7,few clouds,0,0
16,Ushuaia,AR,2021-09-15 16:29:06,-54.8,-68.3,29.82,100,90,27.63,light snow,0,0
17,Hasaki,JP,2021-09-15 16:25:30,35.7333,140.8333,68.4,79,8,16.96,clear sky,0,0
18,Portland,US,2021-09-15 16:26:39,45.5234,-122.6762,63.93,58,75,3.0,broken clouds,0,0
19,Hambantota,LK,2021-09-15 16:29:07,6.1241,81.1185,80.73,80,33,16.22,scattered clouds,0,0
20,New Norfolk,AU,2021-09-15 16:29:07,-42.7826,147.0587,39.9,73,96,1.74,overcast clouds,0,0
21,Aswan,EG,2021-09-15 16:29:08,24.0934,32.907,99.7,16,0,11.5,clear sky,0,0
22,Sao Felix Do Xingu,BR,2021-09-15 16:29:08,-6.6447,-51.995,102.92,19,0,4.63,clear sky,0,0
23,Deputatskiy,RU,2021-09-15 16:29:09,69.3,139.9,39.69,80,100,3.67,overcast clouds,0,0
24,Iracoubo,GF,2021-09-15 16:29:09,5.4802,-53.2011,86.56,63,4,8.99,clear sky,0,0
25,Punta Arenas,CL,2021-09-15 16:25:00,-53.15,-70.9167,37.51,75,40,26.46,scattered clouds,0,0
26,Chokurdakh,RU,2021-09-15 16:29:09,70.6333,147.9167,26.6,87,24,3.87,few clouds,0,0
27,Bluff,NZ,2021-09-15 16:29:10,-46.6,168.3333,41.81,77,66,11.59,broken clouds,0,0
28,Bredasdorp,ZA,2021-09-15 16:29:10,-34.5322,20.0403,58.28,70,60,9.15,broken clouds,0,0
29,Juba,SS,2021-09-15 16:25:11,4.8517,31.5825,82.31,54,39,3.13,scattered clouds,0,0
30,Sorland,NO,2021-09-15 16:29:11,67.667,12.6934,50.07,59,92,7.36,overcast clouds,0,0
31,Ribeira Grande,PT,2021-09-15 16:29:11,38.5167,-28.7,73.8,73,20,5.75,few clouds,0,0
32,Camalu,MX,2021-09-15 16:29:11,30.85,-116.0667,72.72,63,0,6.69,clear sky,0,0
33,Vaini,TO,2021-09-15 16:29:12,-21.2,-175.2,73.56,100,20,5.75,few clouds,0,0
34,Teya,RU,2021-09-15 16:29:12,60.3778,92.6267,38.66,95,100,2.82,overcast clouds,0,0
35,Kaitangata,NZ,2021-09-15 16:29:13,-46.2817,169.8464,41.81,87,44,8.14,scattered clouds,0,0
36,Jamestown,US,2021-09-15 16:25:37,42.097,-79.2353,64.02,98,90,1.99,moderate rain,0,0
37,Sao Gabriel Da Cachoeira,BR,2021-09-15 16:29:13,-0.1303,-67.0892,85.8,70,20,4.61,few clouds,0,0
38,Leningradskiy,RU,2021-09-15 16:29:14,69.3833,178.4167,26.73,96,96,1.43,light snow,0,0
39,Mataura,NZ,2021-09-15 16:29:14,-46.1927,168.8643,41.49,95,90,3.29,overcast clouds,0,0
40,Cabo San Lucas,MX,2021-09-15 16:28:45,22.8909,-109.9124,89.62,77,1,1.01,clear sky,0,0
41,San Quintin,MX,2021-09-15 16:29:14,30.4833,-115.95,72.36,69,0,10.27,clear sky,0,0
42,Adrar,MR,2021-09-15 16:29:15,20.5022,-10.0711,107.58,10,9,18.21,clear sky,0,0
43,Tasiilaq,GL,2021-09-15 16:29:15,65.6145,-37.6368,42.96,98,100,10.42,light rain,0,0
44,Srednekolymsk,RU,2021-09-15 16:29:16,67.45,153.6833,40.39,84,98,11.77,overcast clouds,0,0
45,Lasa,IT,2021-09-15 16:29:16,46.6166,10.7002,70.02,87,92,2.68,light rain,0,0
46,Cherskiy,RU,2021-09-15 16:29:16,68.75,161.3,29.77,85,83,15.17,broken clouds,0,0
47,Patharia,IN,2021-09-15 16:29:17,23.9,79.2,75.0,96,98,4.52,overcast clouds,0,0
48,Ponta Do Sol,PT,2021-09-15 16:29:17,32.6667,-17.1,81.12,72,32,3.91,scattered clouds,0,0
49,Avarua,CK,2021-09-15 16:29:17,-21.2078,-159.775,73.45,83,75,8.05,broken clouds,0,0
50,Hithadhoo,MV,2021-09-15 16:25:00,-0.6,73.0833,81.45,75,85,9.62,overcast clouds,0,0
51,Svetlaya,RU,2021-09-15 16:29:18,46.5389,138.3297,53.71,74,2,4.83,clear sky,0,0
52,Cape Town,ZA,2021-09-15 16:27:19,-33.9258,18.4232,60.12,68,20,3.0,few clouds,0,0
53,Herat,AF,2021-09-15 16:29:19,34.5,62.0,82.65,11,0,34.09,clear sky,0,0
54,Saint Anthony,US,2021-09-15 16:29:19,45.0205,-93.218,73.92,52,1,5.01,clear sky,0,0
55,Razgrad,BG,2021-09-15 16:29:19,43.5333,26.5167,74.8,43,75,7.38,broken clouds,0,0
56,Coquimbo,CL,2021-09-15 16:29:20,-29.9533,-71.3436,58.73,67,0,10.36,clear sky,0,0
57,Bodden Town,KY,2021-09-15 16:29:20,19.2833,-81.25,88.99,71,40,3.0,scattered clouds,0,0
58,Bose,IT,2021-09-15 16:29:21,45.4612,8.0137,73.2,81,96,3.02,overcast clouds,0,0
59,Nieuw Amsterdam,SR,2021-09-15 16:29:21,5.8833,-55.0833,94.01,61,40,5.75,scattered clouds,0,0
60,Saint George,US,2021-09-15 16:29:21,37.1041,-113.5841,91.54,20,1,0.0,clear sky,0,0
61,Khatanga,RU,2021-09-15 16:25:25,71.9667,102.5,42.76,87,100,8.39,overcast clouds,0,0
62,Jiexiu,CN,2021-09-15 16:29:22,37.0244,111.9125,69.8,67,48,6.08,scattered clouds,0,0
63,Lebu,CL,2021-09-15 16:29:22,-37.6167,-73.65,53.11,67,1,5.59,clear sky,0,0
64,Krasnoselkup,RU,2021-09-15 16:29:23,65.7,82.4667,39.94,91,100,2.01,overcast clouds,0,0
65,Sola,VU,2021-09-15 16:29:23,-13.8833,167.55,78.4,78,19,6.73,few clouds,0,0
66,San Ramon,US,2021-09-15 16:29:23,37.7799,-121.978,66.31,78,20,5.01,few clouds,0,0
67,Aklavik,CA,2021-09-15 16:29:24,68.2191,-135.0107,43.52,74,75,5.06,broken clouds,0,0
68,Nadvoitsy,RU,2021-09-15 16:29:24,63.8667,34.3167,43.32,76,100,10.2,overcast clouds,0,0
69,Dikson,RU,2021-09-15 16:29:24,73.5069,80.5464,38.55,92,100,27.04,overcast clouds,0,0
70,Nanortalik,GL,2021-09-15 16:29:25,60.1432,-45.2371,40.62,70,1,4.14,clear sky,0,0
71,Grindavik,IS,2021-09-15 16:29:25,63.8424,-22.4338,57.15,71,75,12.66,broken clouds,0,0
72,Longyearbyen,SJ,2021-09-15 16:29:26,78.2186,15.6401,33.64,75,20,4.61,few clouds,0,0
73,Sitka,US,2021-09-15 16:29:26,57.0531,-135.33,48.09,93,75,6.91,light rain,0,0
74,Nisia Floresta,BR,2021-09-15 16:29:26,-6.0911,-35.2086,83.21,55,43,15.48,scattered clouds,0,0
75,Cabinda,AO,2021-09-15 16:29:27,-5.55,12.2,78.94,78,75,6.91,broken clouds,0,0
76,Bumba,CD,2021-09-15 16:29:27,2.1833,22.4667,82.45,64,17,2.3,few clouds,0,0
77,Chalmette,US,2021-09-15 16:29:27,29.9427,-89.9634,80.6,82,90,5.01,mist,0,0
78,Ixtapa,MX,2021-09-15 16:29:09,20.7,-105.2,81.23,83,75,2.3,broken clouds,0,0
79,Aragarcas,BR,2021-09-15 16:29:28,-15.8975,-52.2508,104.74,10,30,8.39,scattered clouds,0,0
80,Hilo,US,2021-09-15 16:29:28,19.7297,-155.09,80.28,68,20,8.05,few clouds,0,0
81,Bengkulu,ID,2021-09-15 16:29:29,-3.8004,102.2655,77.18,89,17,6.55,heavy intensity rain,0,0
82,Barrow,US,2021-09-15 16:29:29,71.2906,-156.7887,37.42,87,90,11.5,mist,0,0
83,Ilulissat,GL,2021-09-15 16:29:29,69.2167,-51.1,32.02,74,75,12.66,light shower snow,0,0
84,Beidao,CN,2021-09-15 16:29:30,34.5686,105.8933,62.11,87,98,2.59,light rain,0,0
85,Namwala,ZM,2021-09-15 16:29:30,-15.7504,26.4384,88.59,19,29,2.17,scattered clouds,0,0
86,Atambua,ID,2021-09-15 16:29:31,-9.1061,124.8925,73.44,86,37,4.45,scattered clouds,0,0
87,San Nicolas,PH,2021-09-15 16:29:31,18.1725,120.5953,80.67,85,81,3.91,broken clouds,0,0
88,Assiniboia,CA,2021-09-15 16:29:31,49.6334,-105.9845,67.82,32,41,21.85,scattered clouds,0,0
89,Baruun-Urt,MN,2021-09-15 16:29:32,46.6806,113.2792,52.07,75,50,6.67,scattered clouds,0,0
90,Nanakuli,US,2021-09-15 16:29:32,21.3906,-158.1547,73.35,88,90,3.44,overcast clouds,0,0
91,Port-Cartier,CA,2021-09-15 16:29:32,50.0334,-66.8654,50.94,97,100,8.5,overcast clouds,0,0
92,Victoria,HK,2021-09-15 16:28:25,22.2855,114.1577,87.96,81,86,9.84,light rain,0,0
93,Flinders,AU,2021-09-15 16:29:33,-34.5833,150.8552,52.81,87,30,8.5,scattered clouds,0,0
94,Nouakchott,MR,2021-09-15 16:29:33,18.0858,-15.9785,98.53,40,62,4.0,broken clouds,0,0
95,Norman Wells,CA,2021-09-15 16:29:34,65.282,-126.8329,44.64,87,75,5.75,light rain,0,0
96,Qaanaaq,GL,2021-09-15 16:29:34,77.484,-69.3632,17.01,73,10,9.75,clear sky,0,0
97,Iqaluit,CA,2021-09-15 16:26:20,63.7506,-68.5145,37.13,75,90,12.66,overcast clouds,0,0
98,Myre,NO,2021-09-15 16:29:35,69.1036,15.9492,49.91,65,94,6.24,overcast clouds,0,0
99,Hobart,AU,2021-09-15 16:29:35,-42.8794,147.3294,40.26,93,95,9.22,overcast clouds,0,0
100,Port Alfred,ZA,2021-09-15 16:29:35,-33.5906,26.891,60.76,62,94,19.19,overcast clouds,0,0
101,Cidreira,BR,2021-09-15 16:29:36,-30.1811,-50.2056,61.86,48,0,11.12,clear sky,0,0
102,Kodiak,US,2021-09-15 16:29:36,57.79,-152.4072,47.71,76,90,4.61,light rain,0,0
103,Arraial Do Cabo,BR,2021-09-15 16:29:37,-22.9661,-42.0278,84.16,65,0,6.91,clear sky,0,0
104,Klaksvik,FO,2021-09-15 16:29:37,62.2266,-6.589,54.52,81,100,3.06,overcast clouds,0,0
105,Oranjemund,NA,2021-09-15 16:29:38,-28.55,16.4333,56.01,69,0,22.79,clear sky,0,0
106,Nemuro,JP,2021-09-15 16:29:38,43.3236,145.575,52.43,78,0,7.18,clear sky,0,0
107,Huarmey,PE,2021-09-15 16:29:38,-10.0681,-78.1522,67.57,71,69,11.97,broken clouds,0,0
108,Tuktoyaktuk,CA,2021-09-15 16:29:39,69.4541,-133.0374,37.4,100,75,6.91,broken clouds,0,0
109,Crixas,BR,2021-09-15 16:29:39,-14.5489,-49.9692,103.23,11,3,8.05,clear sky,0,0
110,Morondava,MG,2021-09-15 16:29:40,-20.2833,44.2833,76.53,78,3,8.43,clear sky,0,0
111,Pozo Colorado,PY,2021-09-15 16:29:40,-23.4923,-58.7972,63.86,57,100,8.37,overcast clouds,0,0
112,Coihaique,CL,2021-09-15 16:29:40,-45.5752,-72.0662,56.01,58,75,6.91,broken clouds,0,0
113,Loukhi,RU,2021-09-15 16:29:41,66.0764,33.0381,41.07,81,100,4.34,overcast clouds,0,0
114,Huancavelica,PE,2021-09-15 16:29:41,-12.7667,-74.9833,48.63,58,80,8.97,broken clouds,0,0
115,Albany,US,2021-09-15 16:29:20,42.6001,-73.9662,83.03,76,66,1.99,broken clouds,0,0
116,Mantua,IT,2021-09-15 16:27:39,45.1667,10.7833,84.9,58,98,1.99,overcast clouds,0,0
117,Bethel,US,2021-09-15 16:29:42,41.3712,-73.414,83.46,77,20,8.05,few clouds,0,0
118,Thompson,CA,2021-09-15 16:29:42,55.7435,-97.8558,53.76,76,75,3.44,broken clouds,0,0
119,Leszno,PL,2021-09-15 16:29:42,51.8403,16.5749,74.62,51,97,5.5,overcast clouds,0,0
120,Axim,GH,2021-09-15 16:29:43,4.8699,-2.2405,76.75,87,100,9.15,light rain,0,0
121,Valparaiso,CL,2021-09-15 16:27:49,-33.0393,-71.6273,59.23,72,0,6.91,clear sky,0,0
122,Araouane,ML,2021-09-15 16:29:43,18.9048,-3.5265,107.49,12,41,12.91,scattered clouds,0,0
123,Kruisfontein,ZA,2021-09-15 16:29:44,-34.0033,24.7314,55.89,66,100,13.0,overcast clouds,0,0
124,Nikolskoye,RU,2021-09-15 16:25:15,59.7035,30.7861,48.09,92,69,5.14,broken clouds,0,0
125,Lithakia,GR,2021-09-15 16:29:44,37.7167,20.8333,81.68,42,20,6.91,few clouds,0,0
126,Saldanha,ZA,2021-09-15 16:26:56,-33.0117,17.9442,56.46,71,0,15.28,clear sky,0,0
127,New London,US,2021-09-15 16:29:45,41.4834,-72.0662,85.32,75,40,5.99,scattered clouds,0,0
128,Gogrial,SS,2021-09-15 16:29:45,8.5332,28.1004,82.02,68,88,3.18,overcast clouds,0,0
129,Bonthe,SL,2021-09-15 16:29:45,7.5264,-12.505,76.33,89,100,3.09,light rain,0,0
130,Livingstonia,MW,2021-09-15 16:29:46,-10.606,34.1063,67.28,61,3,3.58,clear sky,0,0
131,Plettenberg Bay,ZA,2021-09-15 16:29:46,-34.0527,23.3716,56.57,66,48,8.03,scattered clouds,0,0
132,Mackay,AU,2021-09-15 16:29:47,-21.15,149.2,57.04,82,6,4.61,clear sky,0,0
133,Merauke,ID,2021-09-15 16:29:47,-8.4667,140.3333,75.6,85,9,13.47,clear sky,0,0
134,Semirom,IR,2021-09-15 16:29:47,31.4167,51.5667,66.0,6,0,6.78,clear sky,0,0
135,Acapulco,MX,2021-09-15 16:28:27,16.8634,-99.8901,82.22,78,75,5.75,broken clouds,0,0
136,Airai,TL,2021-09-15 16:29:48,-8.9266,125.4092,59.76,87,37,2.84,scattered clouds,0,0
137,Xiaoshan,CN,2021-09-15 16:29:48,30.1675,120.2588,73.26,94,75,8.95,light rain,0,0
138,Mecca,SA,2021-09-15 16:26:20,21.4267,39.8261,89.26,48,100,7.94,overcast clouds,0,0
139,Caconda,AO,2021-09-15 16:29:49,-13.7333,15.0667,86.23,15,24,8.72,few clouds,0,0
140,Tevriz,RU,2021-09-15 16:29:49,57.509,72.4042,54.54,74,100,4.74,overcast clouds,0,0
141,Pevek,RU,2021-09-15 16:29:50,69.7008,170.3133,30.38,84,99,12.03,overcast clouds,0,0
142,Ambilobe,MG,2021-09-15 16:29:50,-13.2,49.05,76.87,62,72,6.33,broken clouds,0,0
143,Atuona,PF,2021-09-15 16:29:50,-9.8,-139.0333,77.76,74,59,25.93,broken clouds,0,0
144,San Carlos De Bariloche,AR,2021-09-15 16:29:51,-41.1456,-71.3082,47.95,57,40,24.16,scattered clouds,0,0
145,Santa Fe,AR,2021-09-15 16:25:56,-31.6333,-60.7,72.0,21,0,3.0,clear sky,0,0
146,Mnogovershinnyy,RU,2021-09-15 16:29:51,53.9353,139.9242,48.18,78,4,6.22,clear sky,0,0
147,Baykit,RU,2021-09-15 16:29:52,61.67,96.37,35.94,96,100,3.09,overcast clouds,0,0
148,Flin Flon,CA,2021-09-15 16:29:52,54.7682,-101.865,57.04,62,75,3.44,broken clouds,0,0
149,Port Elizabeth,ZA,2021-09-15 16:29:52,-33.918,25.5701,58.1,72,20,16.11,few clouds,0,0
150,La Oroya,PE,2021-09-15 16:29:53,-11.5189,-75.8994,55.78,46,30,12.3,scattered clouds,0,0
151,Nikko,JP,2021-09-15 16:29:53,36.75,139.6167,60.13,94,78,1.3,broken clouds,0,0
152,Butaritari,KI,2021-09-15 16:29:54,3.0707,172.7902,81.7,77,64,11.7,light rain,0,0
153,Kenai,US,2021-09-15 16:29:54,60.5544,-151.2583,47.08,83,90,9.22,overcast clouds,0,0
154,Faanui,PF,2021-09-15 16:29:54,-16.4833,-151.75,78.87,68,4,18.19,clear sky,0,0
155,Puerto Ayora,EC,2021-09-15 16:29:55,-0.7393,-90.3518,75.16,89,90,5.01,overcast clouds,0,0
156,Egvekinot,RU,2021-09-15 16:29:55,66.3167,-179.1667,29.08,89,56,2.44,broken clouds,0,0
157,Korla,CN,2021-09-15 16:29:55,41.7597,86.1469,75.76,29,0,3.38,clear sky,0,0
158,Clyde River,CA,2021-09-15 16:28:21,70.4692,-68.5914,32.23,64,20,2.3,few clouds,0,0
159,Berlevag,NO,2021-09-15 16:24:57,70.8578,29.0864,42.75,70,20,3.44,few clouds,0,0
160,Machinga,MW,2021-09-15 16:29:56,-15.1685,35.3,80.04,28,55,4.0,broken clouds,0,0
161,Codrington,AU,2021-09-15 16:29:57,-38.2667,141.9667,48.0,74,100,7.78,overcast clouds,0,0
162,Meulaboh,ID,2021-09-15 16:29:57,4.1363,96.1285,78.08,80,100,2.62,overcast clouds,0,0
163,Garden City,US,2021-09-15 16:29:33,42.3256,-83.331,73.94,72,90,1.01,overcast clouds,0,0
164,Saint-Philippe,RE,2021-09-15 16:29:58,-21.3585,55.7679,71.15,84,52,12.5,broken clouds,0,0
165,Luderitz,NA,2021-09-15 16:29:58,-26.6481,15.1594,59.29,56,0,30.89,clear sky,0,0
166,Carnarvon,AU,2021-09-15 16:29:58,-24.8667,113.6333,66.27,72,14,8.05,few clouds,0,0
167,Saint-Paul,RE,2021-09-15 16:29:59,-21.0096,55.2707,71.69,78,39,0.6,scattered clouds,0,0
168,Fort Frances,CA,2021-09-15 16:27:24,48.5999,-93.4003,65.16,63,1,1.01,clear sky,0,0
169,Kalmunai,LK,2021-09-15 16:29:59,7.4167,81.8167,84.94,70,96,7.25,overcast clouds,0,0
170,Kaeo,NZ,2021-09-15 16:30:00,-35.1,173.7833,60.33,97,100,10.33,overcast clouds,0,0
171,Nouadhibou,MR,2021-09-15 16:27:36,20.931,-17.0347,84.18,61,7,13.8,clear sky,0,0
172,Port Blair,IN,2021-09-15 16:30:00,11.6667,92.75,76.62,90,100,7.14,overcast clouds,0,0
173,Sobolevo,RU,2021-09-15 16:30:01,54.4299,31.8996,46.49,68,5,7.31,clear sky,0,0
174,Saskylakh,RU,2021-09-15 16:30:01,71.9167,114.0833,42.26,96,100,17.18,moderate rain,0,0
175,Qasigiannguit,GL,2021-09-15 16:30:02,68.8193,-51.1922,32.25,76,74,0.72,broken clouds,0,0
176,Vardo,NO,2021-09-15 16:30:02,70.3705,31.1107,43.0,87,75,5.75,broken clouds,0,0
177,Touros,BR,2021-09-15 16:30:04,-5.1989,-35.4608,83.3,63,11,17.87,few clouds,0,0
178,Sao Jose Da Coroa Grande,BR,2021-09-15 16:30:04,-8.8978,-35.1478,80.49,71,80,10.0,broken clouds,0,0
179,Prince Albert,CA,2021-09-15 16:30:05,53.2001,-105.7677,60.75,51,75,21.85,broken clouds,0,0
180,Solnechnyy,RU,2021-09-15 16:30:05,50.7214,136.6319,49.44,83,33,4.85,scattered clouds,0,0
181,Alice Springs,AU,2021-09-15 16:30:05,-23.7,133.8833,69.35,26,52,8.05,broken clouds,0,0
182,Piotrkow Trybunalski,PL,2021-09-15 16:30:06,51.4055,19.7032,71.11,66,95,7.05,overcast clouds,0,0
183,Kavaratti,IN,2021-09-15 16:30:06,10.5669,72.642,81.99,79,52,16.13,broken clouds,0,0
184,Mahebourg,MU,2021-09-15 16:30:07,-20.4081,57.7,69.26,78,15,12.26,few clouds,0,0
185,Mandiana,GN,2021-09-15 16:30:08,10.6333,-8.6833,80.76,83,83,4.92,moderate rain,0,0
186,Yar-Sale,RU,2021-09-15 16:30:09,66.8333,70.8333,39.49,89,10,7.85,clear sky,0,0
187,Fortuna,US,2021-09-15 16:30:10,40.5982,-124.1573,55.74,92,1,3.44,clear sky,0,0
188,Saint-Pierre,RE,2021-09-15 16:30:10,-21.3393,55.4781,71.24,67,0,3.44,clear sky,0,0
189,Kalmar,SE,2021-09-15 16:30:10,56.6616,16.3616,60.73,81,40,11.5,scattered clouds,0,0
190,Guasdualito,VE,2021-09-15 16:30:11,7.2424,-70.7324,87.64,60,78,3.78,broken clouds,0,0
191,Marovoay,MG,2021-09-15 16:30:12,-16.1,46.6333,77.14,48,57,5.91,broken clouds,0,0
192,Esperance,AU,2021-09-15 16:30:12,-33.8667,121.9,60.64,67,88,10.45,overcast clouds,0,0
193,Karratha,AU,2021-09-15 16:30:13,-20.7377,116.8463,68.92,50,4,14.2,clear sky,0,0
194,Lerwick,GB,2021-09-15 16:30:14,60.1545,-1.1494,57.2,87,99,10.18,overcast clouds,0,0
195,Amapa,BR,2021-09-15 16:30:14,1.0,-52.0,97.34,30,0,5.01,clear sky,0,0
196,Souillac,MU,2021-09-15 16:25:51,-20.5167,57.5167,69.37,81,13,10.54,few clouds,0,0
197,Batagay,RU,2021-09-15 16:30:15,67.6333,134.6333,46.83,86,91,3.89,overcast clouds,0,0
198,Bathsheba,BB,2021-09-15 16:30:16,13.2167,-59.5167,90.21,66,40,13.8,scattered clouds,0,0
199,Castro,BR,2021-09-15 16:30:16,-24.7911,-50.0119,68.76,87,97,4.43,overcast clouds,0,0
200,Necochea,AR,2021-09-15 16:30:06,-38.5473,-58.7368,66.04,47,2,15.66,clear sky,0,0
201,Mount Isa,AU,2021-09-15 16:30:17,-20.7333,139.5,56.97,38,8,0.0,clear sky,0,0
202,Ourossogui,SN,2021-09-15 16:30:18,15.6064,-13.3211,104.0,44,20,4.61,few clouds,0,0
203,Muzaffarabad,PK,2021-09-15 16:30:18,34.37,73.4711,72.86,74,0,4.07,clear sky,0,0
204,Pisco,PE,2021-09-15 16:30:18,-13.7,-76.2167,65.01,72,78,9.22,broken clouds,0,0
205,Alta,NO,2021-09-15 16:30:19,69.9689,23.2717,45.64,80,75,2.3,broken clouds,0,0
206,Campos Gerais,BR,2021-09-15 16:30:20,-21.235,-45.7586,95.9,13,30,5.08,scattered clouds,0,0
207,Oktyabrskiy,RU,2021-09-15 16:30:20,54.4815,53.471,48.72,64,70,11.1,broken clouds,0,0
208,Yellowknife,CA,2021-09-15 16:27:01,62.456,-114.3525,50.52,87,90,19.57,overcast clouds,0,0
209,Cayenne,GF,2021-09-15 16:30:05,4.9333,-52.3333,91.44,74,75,5.01,broken clouds,0,0
210,Kapaa,US,2021-09-15 16:30:21,22.0752,-159.319,75.52,75,75,18.41,light rain,0,0
211,San Patricio,US,2021-09-15 16:30:22,28.017,-97.5169,84.29,63,84,9.69,broken clouds,0,0
212,Novyy Urengoy,RU,2021-09-15 16:30:22,66.0833,76.6333,42.53,80,78,4.32,broken clouds,0,0
213,Luchegorsk,RU,2021-09-15 16:30:23,46.4764,134.2569,48.54,80,87,2.06,overcast clouds,0,0
214,Torbay,CA,2021-09-15 16:30:23,47.6666,-52.7314,55.76,66,75,11.5,broken clouds,0,0
215,Jalu,LY,2021-09-15 16:30:24,29.0331,21.5482,84.94,24,0,10.36,clear sky,0,0
216,Pangkalanbuun,ID,2021-09-15 16:30:25,-2.6833,111.6167,73.24,96,99,2.13,overcast clouds,0,0
217,Frydlant Nad Ostravici,CZ,2021-09-15 16:30:25,49.5928,18.3597,77.76,67,100,3.15,overcast clouds,0,0
218,Bandarbeyla,SO,2021-09-15 16:30:26,9.4942,50.8122,77.65,83,98,28.59,overcast clouds,0,0
219,Constantine,DZ,2021-09-15 16:30:26,36.365,6.6147,98.01,19,40,8.05,scattered clouds,0,0
220,Oleksandrivka,UA,2021-09-15 16:30:27,48.9634,32.2349,58.62,28,64,5.55,broken clouds,0,0
221,Camana,PE,2021-09-15 16:30:28,-16.6228,-72.7111,63.93,77,95,11.52,overcast clouds,0,0
222,Itaqui,BR,2021-09-15 16:30:28,-29.1253,-56.5531,67.01,37,2,7.34,clear sky,0,0
223,Letterkenny,IE,2021-09-15 16:29:33,54.95,-7.7333,60.69,94,100,3.02,overcast clouds,0,0
224,Bilma,NE,2021-09-15 16:30:29,18.6853,12.9164,100.36,12,8,6.38,clear sky,0,0
225,Aksu,CN,2021-09-15 16:30:30,41.1231,80.2644,71.53,40,65,6.15,broken clouds,0,0
226,General Roca,AR,2021-09-15 16:30:31,-39.0333,-67.5833,63.0,24,6,21.79,clear sky,0,0
227,Hearst,CA,2021-09-15 16:30:31,49.6835,-83.6665,59.25,60,32,8.55,scattered clouds,0,0
228,Uige,AO,2021-09-15 16:30:32,-7.6087,15.0613,73.63,82,70,1.12,moderate rain,0,0
229,Taltal,CL,2021-09-15 16:26:28,-25.4,-70.4833,62.37,62,0,8.34,clear sky,0,0
230,Lagoa,PT,2021-09-15 16:30:32,39.05,-27.9833,70.65,65,5,3.11,clear sky,0,0
231,Salalah,OM,2021-09-15 16:30:33,17.0151,54.0924,82.49,89,90,5.75,overcast clouds,0,0
232,Kaseda,JP,2021-09-15 16:30:34,31.4167,130.3167,77.65,90,100,12.71,overcast clouds,0,0
233,Hofn,IS,2021-09-15 16:30:34,64.2539,-15.2082,51.82,100,90,6.91,mist,0,0
234,Gornji Milanovac,RS,2021-09-15 16:30:35,44.0333,20.45,82.49,37,3,2.46,clear sky,0,0
235,Paka,MY,2021-09-15 16:30:36,4.6374,103.4368,75.13,94,77,0.0,broken clouds,0,0
236,Forestville,US,2021-09-15 16:30:36,38.8451,-76.875,88.39,59,1,11.5,clear sky,0,0
237,Upernavik,GL,2021-09-15 16:30:37,72.7868,-56.1549,31.51,93,100,16.91,light snow,0,0
238,Havelock,US,2021-09-15 16:26:41,34.8791,-76.9013,86.99,77,1,4.0,clear sky,0,0
239,La Palma,US,2021-09-15 16:30:38,33.8464,-118.0467,78.96,77,75,1.01,broken clouds,0,0
240,Vaitape,PF,2021-09-15 16:30:38,-16.5167,-151.75,78.98,68,3,18.48,clear sky,0,0
241,Komsomolskiy,UZ,2021-09-15 16:30:39,40.4272,71.7189,75.92,31,0,9.22,clear sky,0,0
242,Lorengau,PG,2021-09-15 16:30:40,-2.0226,147.2712,79.21,85,99,15.01,moderate rain,0,0
243,Hobyo,SO,2021-09-15 16:30:40,5.3505,48.5268,78.66,81,84,25.1,broken clouds,0,0
244,Pacific Grove,US,2021-09-15 16:29:00,36.6177,-121.9166,60.42,92,90,3.0,overcast clouds,0,0
245,East London,ZA,2021-09-15 16:30:41,-33.0153,27.9116,59.94,72,0,14.97,clear sky,0,0
246,Lubango,AO,2021-09-15 16:30:42,-14.9172,13.4925,84.06,4,20,4.61,few clouds,0,0
247,Saint-Andre-Les-Vergers,FR,2021-09-15 16:30:43,48.2853,4.0521,73.44,78,75,11.5,light rain,0,0
248,Dongsheng,CN,2021-09-15 16:30:44,39.8161,109.9776,54.9,88,100,4.43,overcast clouds,0,0
249,Geraldton,AU,2021-09-15 16:30:44,-28.7667,114.6,62.13,94,75,16.11,broken clouds,0,0
250,Shangrao,CN,2021-09-15 16:30:45,28.4532,117.9686,70.88,77,40,0.16,scattered clouds,0,0
251,Mao,ES,2021-09-15 16:30:45,39.8885,4.2658,81.16,69,0,6.91,clear sky,0,0
252,Agartala,IN,2021-09-15 16:27:26,23.8364,91.275,77.61,94,100,4.5,heavy intensity rain,0,0
253,Debno,PL,2021-09-15 16:30:46,52.739,14.698,77.54,94,100,5.12,light rain,0,0
254,Sile,TR,2021-09-15 16:30:47,41.1754,29.6133,74.07,74,100,3.0,overcast clouds,0,0
255,Tura,IN,2021-09-15 16:30:47,25.5198,90.2201,74.57,95,99,1.34,overcast clouds,0,0
256,Ust-Maya,RU,2021-09-15 16:30:47,60.4167,134.5333,44.26,91,84,2.93,broken clouds,0,0
257,Muktsar,IN,2021-09-15 16:30:48,30.4833,74.5167,84.33,55,9,2.98,clear sky,0,0
258,Isangel,VU,2021-09-15 16:30:49,-19.55,169.2667,74.25,89,95,7.02,overcast clouds,0,0
259,Mount Gambier,AU,2021-09-15 16:30:49,-37.8333,140.7667,48.11,87,90,5.75,overcast clouds,0,0
260,Zalantun,CN,2021-09-15 16:30:50,48.0,122.7167,53.71,99,100,3.69,light rain,0,0
261,Porto Novo,BJ,2021-09-15 16:30:50,6.4965,2.6036,78.62,79,97,7.63,overcast clouds,0,0
262,Lethem,GY,2021-09-15 16:30:51,3.3803,-59.7968,93.67,41,36,3.06,scattered clouds,0,0
263,Rio Gallegos,AR,2021-09-15 16:30:51,-51.6226,-69.2181,44.65,33,20,41.43,dust,0,0
264,Kroonstad,ZA,2021-09-15 16:30:52,-27.6504,27.2349,68.76,19,0,7.2,clear sky,0,0
265,Starovelichkovskaya,RU,2021-09-15 16:30:52,45.4288,38.7326,75.4,44,47,12.08,scattered clouds,0,0
266,Maragogi,BR,2021-09-15 16:30:53,-9.0122,-35.2225,80.17,72,91,10.13,overcast clouds,0,0
267,Usinsk,RU,2021-09-15 16:30:53,65.9939,57.5281,40.6,88,100,11.72,overcast clouds,0,0
268,Kavali,IN,2021-09-15 16:30:53,14.9167,79.9833,86.59,66,91,6.46,overcast clouds,0,0
269,Yaan,NG,2021-09-15 16:30:54,7.3833,8.5667,79.48,82,84,3.13,broken clouds,0,0
270,Moose Factory,CA,2021-09-15 16:30:54,51.2585,-80.6094,57.18,88,75,14.97,broken clouds,0,0
271,Buguruslan,RU,2021-09-15 16:30:55,53.6554,52.442,50.32,61,54,9.04,broken clouds,0,0
272,Xinzhi,CN,2021-09-15 16:30:55,36.4989,111.7047,71.62,70,23,3.6,few clouds,0,0
273,Gulu,UG,2021-09-15 16:30:56,2.7746,32.299,64.15,97,68,6.58,moderate rain,0,0
274,Sao Filipe,CV,2021-09-15 16:30:56,14.8961,-24.4956,81.93,75,85,9.62,overcast clouds,0,0
275,Verkhnyaya Inta,RU,2021-09-15 16:30:56,65.9811,60.3094,40.6,85,100,13.02,overcast clouds,0,0
276,Hualmay,PE,2021-09-15 16:30:57,-11.0964,-77.6139,66.43,71,58,11.5,broken clouds,0,0
277,Jambi,ID,2021-09-15 16:30:57,-1.6,103.6167,75.63,91,75,2.44,broken clouds,0,0
278,Olinda,BR,2021-09-15 16:30:58,-8.0089,-34.8553,80.33,65,40,12.66,scattered clouds,0,0
279,Diffa,NE,2021-09-15 16:30:58,13.3154,12.6113,95.5,33,24,9.06,few clouds,0,0
280,Georgetown,MY,2021-09-15 16:27:16,5.4112,100.3354,82.89,82,20,2.3,few clouds,0,0
281,Megion,RU,2021-09-15 16:30:59,61.0296,76.1136,48.22,80,95,8.01,overcast clouds,0,0
282,Bowen,AU,2021-09-15 16:30:59,-20.0167,148.2333,52.02,71,5,6.42,clear sky,0,0
283,Manavadar,IN,2021-09-15 16:30:59,21.5,70.1333,79.57,94,99,5.91,overcast clouds,0,0
284,Kahului,US,2021-09-15 16:31:00,20.8947,-156.47,74.46,83,20,4.61,few clouds,0,0
285,Barkot,IN,2021-09-15 16:31:00,30.8167,78.2,67.35,95,17,0.81,few clouds,0,0
286,Bambous Virieux,MU,2021-09-15 16:31:01,-20.3428,57.7575,71.85,83,75,9.22,broken clouds,0,0
287,Vievis,LT,2021-09-15 16:31:01,54.7667,24.8,57.38,65,32,4.81,scattered clouds,0,0
288,Mahajanga,MG,2021-09-15 16:31:01,-15.7167,46.3167,77.02,78,0,5.75,clear sky,0,0
289,Polignano A Mare,IT,2021-09-15 16:31:02,40.9959,17.2159,86.41,52,100,3.0,overcast clouds,0,0
290,Maarianhamina,AX,2021-09-15 16:31:02,60.0973,19.9348,49.86,71,90,5.75,overcast clouds,0,0
291,Fairbanks,US,2021-09-15 16:30:32,64.8378,-147.7164,38.3,87,1,0.0,clear sky,0,0
292,Sorong,ID,2021-09-15 16:31:03,-0.8833,131.25,79.27,80,89,2.13,overcast clouds,0,0
293,Northam,GB,2021-09-15 16:31:03,51.0333,-4.2167,70.43,80,12,6.38,few clouds,0,0
294,Bataipora,BR,2021-09-15 16:31:04,-22.2953,-53.2711,88.3,49,92,3.67,overcast clouds,0,0
295,Najran,SA,2021-09-15 16:31:04,17.4924,44.1277,88.45,16,91,6.24,overcast clouds,0,0
296,Hailey,US,2021-09-15 16:31:05,43.5196,-114.3153,57.06,30,1,6.91,clear sky,0,0
297,Bentiu,SS,2021-09-15 16:31:05,9.2333,29.8333,78.49,79,99,4.68,overcast clouds,0,0
298,Campbellsville,US,2021-09-15 16:31:05,37.3434,-85.3419,73.94,72,100,7.07,moderate rain,0,0
299,Amahai,ID,2021-09-15 16:31:06,-3.3333,128.9167,77.59,86,100,2.37,overcast clouds,0,0
300,Chuy,UY,2021-09-15 16:31:06,-33.6971,-53.4616,59.86,51,0,5.39,clear sky,0,0
301,Sterlibashevo,RU,2021-09-15 16:31:07,53.4376,55.2578,48.78,70,64,7.67,broken clouds,0,0
302,Preobrazheniye,RU,2021-09-15 16:31:07,42.9019,133.9064,57.65,86,77,4.88,broken clouds,0,0
303,Miles City,US,2021-09-15 16:31:08,46.4083,-105.8406,72.57,33,1,9.22,clear sky,0,0
304,Tuatapere,NZ,2021-09-15 16:31:08,-46.1333,167.6833,41.83,85,84,4.14,broken clouds,0,0
305,Birao,CF,2021-09-15 16:31:08,10.2849,22.7882,79.21,70,69,3.06,broken clouds,0,0
306,Ayan,RU,2021-09-15 16:31:09,56.45,138.1667,57.76,66,9,4.09,clear sky,0,0
307,Rutul,RU,2021-09-15 16:31:09,41.5357,47.4239,63.5,84,5,4.21,clear sky,0,0
308,Tailai,CN,2021-09-15 16:31:10,46.3833,123.4,57.72,96,100,9.19,moderate rain,0,0
309,Tigil,RU,2021-09-15 16:31:10,57.8,158.6667,36.0,84,20,4.21,few clouds,0,0
310,Santa Isabel,BR,2021-09-15 16:31:10,-23.3156,-46.2214,74.91,59,65,14.32,broken clouds,0,0
311,Kloulklubed,PW,2021-09-15 16:27:06,7.0419,134.2556,75.7,72,100,6.42,overcast clouds,0,0
312,Quatre Cocos,MU,2021-09-15 16:31:11,-20.2078,57.7625,71.71,78,22,11.95,few clouds,0,0
313,Muskogee,US,2021-09-15 16:31:11,35.5834,-95.3336,83.52,57,1,0.0,clear sky,0,0
314,Te Anau,NZ,2021-09-15 16:31:12,-45.4167,167.7167,31.24,96,66,1.48,broken clouds,0,0
315,Rapid Valley,US,2021-09-15 16:31:12,44.0625,-103.1463,82.56,44,1,1.99,clear sky,0,0
316,Derzhavinsk,KZ,2021-09-15 16:31:12,51.1,66.3167,63.43,55,74,14.5,broken clouds,0,0
317,Oroquieta,PH,2021-09-15 16:31:13,8.4858,123.8044,77.92,88,97,2.33,overcast clouds,0,0
318,Nome,US,2021-09-15 16:28:16,64.5011,-165.4064,42.87,87,75,0.0,broken clouds,0,0
319,Lompoc,US,2021-09-15 16:31:13,34.6391,-120.4579,60.93,89,90,3.44,mist,0,0
320,Redmond,US,2021-09-15 16:31:14,47.674,-122.1215,58.17,78,100,3.0,overcast clouds,0,0
321,Kavieng,PG,2021-09-15 16:31:14,-2.5744,150.7967,79.54,80,100,11.65,light rain,0,0
322,Arlit,NE,2021-09-15 16:31:14,18.7369,7.3853,103.98,13,7,8.95,clear sky,0,0
323,Huanan,CN,2021-09-15 16:31:15,46.2167,130.5167,55.98,47,100,9.08,overcast clouds,0,0
324,Talcahuano,CL,2021-09-15 16:31:15,-36.7167,-73.1167,55.08,62,0,13.8,clear sky,0,0
325,Qobustan,AZ,2021-09-15 16:31:16,40.0824,49.412,71.71,61,0,10.78,clear sky,0,0
326,Minab,IR,2021-09-15 16:31:16,27.1467,57.0801,90.9,47,9,1.7,clear sky,0,0
327,Tromso,NO,2021-09-15 16:31:17,69.6496,18.957,47.05,76,20,8.05,few clouds,0,0
328,Haines Junction,CA,2021-09-15 16:31:17,60.7522,-137.5108,28.35,86,100,1.14,overcast clouds,0,0
329,Paragominas,BR,2021-09-15 16:31:17,-2.9667,-47.4833,93.83,37,29,8.66,scattered clouds,0,0
330,Mehamn,NO,2021-09-15 16:31:18,71.0357,27.8492,44.78,81,20,1.14,few clouds,0,0
331,Muli,MV,2021-09-15 16:31:18,2.9167,73.5667,81.79,71,100,18.54,overcast clouds,0,0
332,Martapura,ID,2021-09-15 16:31:18,-3.4167,114.85,75.29,100,98,3.44,mist,0,0
333,Grand Baie,MU,2021-09-15 16:31:19,-20.0182,57.5802,72.07,81,15,3.0,few clouds,0,0
334,Hay River,CA,2021-09-15 16:29:18,60.8156,-115.7999,51.78,87,90,14.97,moderate rain,0,0
335,Fort Nelson,CA,2021-09-15 16:26:48,58.8053,-122.7002,45.99,71,90,12.66,light intensity shower rain,0,0
336,Nuuk,GL,2021-09-15 16:31:20,64.1835,-51.7216,38.01,44,20,9.22,few clouds,0,0
337,Eyl,SO,2021-09-15 16:31:20,7.9803,49.8164,78.89,77,97,22.28,overcast clouds,0,0
338,Tazovskiy,RU,2021-09-15 16:31:20,67.4667,78.7,42.58,90,94,7.61,overcast clouds,0,0
339,Avera,US,2021-09-15 16:31:21,33.194,-82.5271,85.71,58,100,3.51,overcast clouds,0,0
340,Shemonaikha,KZ,2021-09-15 16:31:21,50.6328,81.9056,56.1,41,43,3.0,scattered clouds,0,0
341,Shingu,JP,2021-09-15 16:31:22,33.7333,135.9833,74.91,91,80,5.97,broken clouds,0,0
342,Superior,US,2021-09-15 16:31:22,46.7208,-92.1041,72.95,54,1,6.91,clear sky,0,0
343,Chicama,PE,2021-09-15 16:31:22,-7.8447,-79.1469,59.54,58,17,10.65,few clouds,0,0
344,Tautira,PF,2021-09-15 16:31:23,-17.7333,-149.15,73.42,76,18,16.2,light rain,0,0
345,Faya,SA,2021-09-15 16:31:23,18.3851,42.4509,75.31,49,72,4.21,broken clouds,0,0
346,Barguzin,RU,2021-09-15 16:31:24,53.6167,109.6167,41.61,74,7,3.06,clear sky,0,0
347,Am Timan,TD,2021-09-15 16:31:24,11.0297,20.2827,80.44,75,41,2.8,scattered clouds,0,0
348,Tuntum,BR,2021-09-15 16:31:24,-5.2581,-44.6489,101.43,23,33,5.21,scattered clouds,0,0
349,Ziarat,PK,2021-09-15 16:31:25,30.3823,67.7282,65.62,57,0,3.69,clear sky,0,0
350,Pedernales,DO,2021-09-15 16:31:25,18.0384,-71.744,86.72,64,2,4.59,clear sky,0,0
351,Camacha,PT,2021-09-15 16:31:26,33.0833,-16.3333,74.62,65,20,17.27,few clouds,0,0
352,Cap Malheureux,MU,2021-09-15 16:31:26,-19.9842,57.6142,72.09,81,15,3.0,few clouds,0,0
353,Katangli,RU,2021-09-15 16:31:26,51.7102,143.2326,46.15,85,2,9.4,clear sky,0,0
354,Wajid,SO,2021-09-15 16:31:27,3.8093,43.2471,88.2,34,60,13.27,broken clouds,0,0
355,Ancud,CL,2021-09-15 16:31:27,-41.8697,-73.8203,55.42,81,100,9.55,overcast clouds,0,0
356,Walvis Bay,NA,2021-09-15 16:31:27,-22.9575,14.5053,63.55,51,0,18.41,clear sky,0,0
357,Ocampo,MX,2021-09-15 16:31:28,21.65,-101.5,68.47,59,99,4.81,overcast clouds,0,0
358,Ahipara,NZ,2021-09-15 16:31:28,-35.1667,173.1667,60.1,97,100,11.03,light rain,0,0
359,Carnot,CF,2021-09-15 16:31:29,4.9409,15.8665,77.4,81,60,3.18,broken clouds,0,0
360,Guerrero Negro,MX,2021-09-15 16:31:29,27.9769,-114.0611,76.21,63,0,15.19,clear sky,0,0
361,Lucapa,AO,2021-09-15 16:31:29,-8.4192,20.7447,82.31,37,68,3.56,broken clouds,0,0
362,Tessalit,ML,2021-09-15 16:31:30,20.1986,1.0114,103.82,10,15,9.24,few clouds,0,0
363,Fort Pierce,US,2021-09-15 16:31:30,27.4467,-80.3256,91.45,63,40,4.0,scattered clouds,0,0
364,Banjar,ID,2021-09-15 16:31:31,-8.19,114.9675,74.84,90,100,4.9,overcast clouds,0,0
365,Dharchula,IN,2021-09-15 16:31:31,29.85,80.5333,70.57,92,83,1.61,broken clouds,0,0
366,Alibag,IN,2021-09-15 16:31:31,18.6411,72.8792,82.47,84,99,11.74,overcast clouds,0,0
367,Iquitos,PE,2021-09-15 16:31:32,-3.7481,-73.2472,89.64,55,0,5.75,clear sky,0,0
368,Nicoya,CR,2021-09-15 16:31:32,10.1483,-85.452,81.95,73,35,1.19,scattered clouds,0,0
369,Providencia,MX,2021-09-15 16:31:32,28.7167,-111.5833,92.86,66,7,4.0,clear sky,0,0
370,Ketchikan,US,2021-09-15 16:31:33,55.3422,-131.6461,52.07,81,88,2.57,light rain,0,0
371,Saratov,RU,2021-09-15 16:31:33,51.5667,46.0333,56.95,37,5,1.99,clear sky,0,0
372,Nakanojo,JP,2021-09-15 16:31:34,36.5833,138.85,67.93,97,98,3.11,overcast clouds,0,0
373,Moron,AR,2021-09-15 16:31:34,-34.6534,-58.6198,68.02,33,0,5.01,clear sky,0,0
374,Kaoma,ZM,2021-09-15 16:31:34,-14.7833,24.8,83.16,21,33,3.87,scattered clouds,0,0
375,Jasper,US,2021-09-15 16:27:46,37.2001,-94.3502,79.23,71,40,1.99,scattered clouds,0,0
376,Palatka,US,2021-09-15 16:31:35,29.6486,-81.6376,90.05,44,45,6.49,scattered clouds,0,0
377,Liseleje,DK,2021-09-15 16:31:35,56.0053,11.9483,60.82,90,100,11.01,light rain,0,0
378,Macapsing,PH,2021-09-15 16:31:36,15.6783,121.1319,75.6,94,59,2.62,broken clouds,0,0
379,Evensk,RU,2021-09-15 16:31:36,61.95,159.2333,41.38,80,89,3.69,overcast clouds,0,0
380,Hokitika,NZ,2021-09-15 16:31:37,-42.7167,170.9667,41.88,72,0,5.75,clear sky,0,0
381,Langham,CA,2021-09-15 16:31:37,52.3668,-106.9679,59.02,50,23,22.12,few clouds,0,0
382,Narsaq,GL,2021-09-15 16:31:37,60.9167,-46.05,46.62,40,0,4.23,clear sky,0,0
383,Alofi,NU,2021-09-15 16:31:38,-19.0595,-169.9187,71.49,94,79,3.44,broken clouds,0,0
384,Nago,JP,2021-09-15 16:31:38,26.5881,127.9761,84.27,86,98,14.36,overcast clouds,0,0
385,Punta Cardon,VE,2021-09-15 16:31:39,11.6581,-70.215,88.79,59,19,13.62,few clouds,0,0
386,Bubaque,GW,2021-09-15 16:31:39,11.2833,-15.8333,81.52,78,91,6.6,overcast clouds,0,0
387,Zhanakorgan,KZ,2021-09-15 16:31:39,43.9098,67.2495,73.74,21,0,7.4,clear sky,0,0
388,Tilichiki,RU,2021-09-15 16:31:40,60.4667,166.1,34.93,81,11,4.88,few clouds,0,0
389,Pandharpur,IN,2021-09-15 16:31:40,17.6667,75.3333,75.81,79,98,12.62,overcast clouds,0,0
390,Klyuchi,RU,2021-09-15 16:31:40,52.2667,79.1667,58.87,30,80,7.56,broken clouds,0,0
391,Pangnirtung,CA,2021-09-15 16:31:41,66.1451,-65.7125,35.6,69,75,3.44,broken clouds,0,0
392,Ossora,RU,2021-09-15 16:31:41,59.2353,163.0719,41.65,67,21,6.08,few clouds,0,0
393,Rocha,UY,2021-09-15 16:29:26,-34.4833,-54.3333,60.35,50,0,8.63,clear sky,0,0
394,Olafsvik,IS,2021-09-15 16:31:42,64.8945,-23.7142,48.49,69,67,10.45,broken clouds,0,0
395,Banepa,NP,2021-09-15 16:31:42,27.6298,85.5214,68.32,94,75,3.44,drizzle,0,0
396,Aranos,NA,2021-09-15 16:31:43,-24.1333,19.1167,71.58,11,0,12.73,clear sky,0,0
397,Riyadh,SA,2021-09-15 16:28:13,24.6877,46.7219,93.34,14,80,11.7,broken clouds,0,0
398,Calamar,CO,2021-09-15 16:31:43,10.2511,-74.9146,89.55,60,100,5.48,overcast clouds,0,0
399,Port Hardy,CA,2021-09-15 16:30:39,50.6996,-127.4199,53.78,87,40,5.75,scattered clouds,0,0
400,Talara,PE,2021-09-15 16:31:44,-4.5772,-81.2719,74.16,60,0,17.27,clear sky,0,0
401,Langsa,ID,2021-09-15 16:31:44,4.4683,97.9683,74.93,94,97,1.63,overcast clouds,0,0
402,Talnakh,RU,2021-09-15 16:31:44,69.4865,88.3972,38.5,93,100,8.23,overcast clouds,0,0
403,Broken Hill,AU,2021-09-15 16:31:45,-31.95,141.4333,51.51,40,2,8.05,clear sky,0,0
404,Malanje,AO,2021-09-15 16:31:45,-9.5402,16.341,81.91,41,87,4.74,overcast clouds,0,0
405,La Ronge,CA,2021-09-15 16:31:45,55.1001,-105.2842,57.45,62,90,10.36,overcast clouds,0,0
406,College,US,2021-09-15 16:30:15,64.8569,-147.8028,38.28,86,40,3.44,scattered clouds,0,0
407,Dodge City,US,2021-09-15 16:31:46,37.7528,-100.0171,79.21,62,1,5.99,clear sky,0,0
408,Dilla,ET,2021-09-15 16:31:46,6.41,38.31,65.64,82,99,5.08,light rain,0,0
409,Denizli,TR,2021-09-15 16:31:47,37.8402,29.0698,68.85,72,97,1.95,overcast clouds,0,0
410,Mayo,US,2021-09-15 16:31:47,38.8876,-76.5119,90.23,68,58,11.01,broken clouds,0,0
411,Kieta,PG,2021-09-15 16:31:48,-6.2167,155.6333,77.07,81,100,5.93,overcast clouds,0,0
412,Mangaratiba,BR,2021-09-15 16:31:48,-22.9597,-44.0406,83.53,77,65,8.16,broken clouds,0,0
413,Farah,AF,2021-09-15 16:31:48,32.5,62.5,81.28,7,0,1.63,clear sky,0,0
414,Lar,IN,2021-09-15 16:31:49,26.2039,83.9717,75.9,94,100,10.63,light rain,0,0
415,Independencia,BR,2021-09-15 16:31:49,-5.3964,-40.3086,93.34,29,52,8.28,broken clouds,0,0
416,Arinos,BR,2021-09-15 16:30:34,-15.9169,-46.1056,101.39,12,1,5.39,clear sky,0,0
417,Sisimiut,GL,2021-09-15 16:31:09,66.9395,-53.6735,37.71,65,33,5.77,scattered clouds,0,0
418,Port Augusta,AU,2021-09-15 16:31:50,-32.5,137.7667,52.7,58,0,5.86,clear sky,0,0
419,Key West,US,2021-09-15 16:29:01,24.5557,-81.7826,87.8,81,90,10.36,light rain,0,0
420,Shimoda,JP,2021-09-15 16:31:50,34.6667,138.95,70.54,87,27,14.47,scattered clouds,0,0
421,Santa Maria Del Oro,MX,2021-09-15 16:31:51,25.9333,-105.3667,80.15,32,75,4.47,broken clouds,0,0
422,Aykhal,RU,2021-09-15 16:31:51,66.0,111.5,35.08,89,55,10.02,broken clouds,0,0
423,Semporna,MY,2021-09-15 16:31:52,4.4818,118.6112,75.4,84,57,4.36,moderate rain,0,0
424,Dingle,PH,2021-09-15 16:31:52,10.9995,122.6711,76.41,88,100,3.94,overcast clouds,0,0
425,Tomatlan,MX,2021-09-15 16:31:52,19.9333,-105.25,85.84,67,28,2.13,scattered clouds,0,0
426,Mogadishu,SO,2021-09-15 16:29:33,2.0371,45.3438,78.17,87,31,18.54,scattered clouds,0,0
427,Zemio,CF,2021-09-15 16:31:53,5.0314,25.1361,73.74,91,28,1.66,light rain,0,0
428,Omboue,GA,2021-09-15 16:31:54,-1.5746,9.2618,77.27,81,100,8.19,overcast clouds,0,0
429,Privolzhsk,RU,2021-09-15 16:31:54,57.3808,41.2886,45.25,94,100,7.36,overcast clouds,0,0
430,Marzuq,YE,2021-09-15 16:31:54,14.4,46.4667,79.43,55,100,14.2,overcast clouds,0,0
431,Puerto Colombia,CO,2021-09-15 16:31:55,10.9878,-74.9547,87.89,70,100,5.59,overcast clouds,0,0
432,Grand Forks,US,2021-09-15 16:31:55,47.9417,-97.4337,68.79,53,75,10.36,broken clouds,0,0
433,Rincon,US,2021-09-15 16:31:56,32.296,-81.2354,89.51,74,75,5.75,broken clouds,0,0
434,Sinjar,IQ,2021-09-15 16:31:56,36.3209,41.8754,83.48,26,0,11.27,clear sky,0,0
435,Namibe,AO,2021-09-15 16:31:57,-15.1961,12.1522,64.38,78,19,10.29,few clouds,0,0
436,Tara,RU,2021-09-15 16:31:57,56.8944,74.371,55.11,67,100,6.31,overcast clouds,0,0
437,Muroto,JP,2021-09-15 16:31:57,33.2833,134.15,75.24,74,72,14.88,broken clouds,0,0
438,Gat,IL,2021-09-15 16:31:58,31.61,34.7642,80.82,100,9,9.22,clear sky,0,0
439,Skibbereen,IE,2021-09-15 16:31:58,51.55,-9.2667,62.4,75,100,12.86,overcast clouds,0,0
440,Santa Quiteria,BR,2021-09-15 16:31:59,-4.3319,-40.1567,99.97,22,18,9.19,few clouds,0,0
441,Dossor,KZ,2021-09-15 16:31:59,47.5272,52.9811,73.04,31,55,11.3,broken clouds,0,0
442,Roald,NO,2021-09-15 16:32:00,62.5833,6.1333,61.16,82,40,0.0,scattered clouds,0,0
443,Ola,RU,2021-09-15 16:32:00,59.5833,151.2833,45.99,81,56,5.37,broken clouds,0,0
444,Los Llanos De Aridane,ES,2021-09-15 16:32:00,28.6585,-17.9182,76.12,72,75,9.22,broken clouds,0,0
445,Zhurivka,UA,2021-09-15 16:32:01,50.5028,31.7849,58.98,35,86,5.35,overcast clouds,0,0
446,Goderich,CA,2021-09-15 16:30:39,43.7501,-81.7165,69.03,68,79,4.61,broken clouds,0,0
447,Awbari,LY,2021-09-15 16:32:01,26.5921,12.7805,88.97,19,0,9.69,clear sky,0,0
448,Katobu,ID,2021-09-15 16:32:02,-4.9408,122.5276,74.12,93,83,3.06,broken clouds,0,0
449,Bibbiena,IT,2021-09-15 16:32:02,43.6965,11.8135,80.01,62,94,5.97,overcast clouds,0,0
450,Wajima,JP,2021-09-15 16:32:03,37.4,136.9,69.15,73,4,11.56,clear sky,0,0
451,Igarka,RU,2021-09-15 16:32:03,67.4667,86.5833,38.32,98,100,5.75,overcast clouds,0,0
452,Mayumba,GA,2021-09-15 16:32:03,-3.432,10.6554,76.87,86,85,7.83,overcast clouds,0,0
453,Kosino,RU,2021-09-15 16:32:04,58.4127,51.2782,41.34,95,100,10.16,light rain,0,0
454,Vila Velha,BR,2021-09-15 16:28:33,-20.3297,-40.2925,87.75,58,0,12.66,clear sky,0,0
455,Uporovo,RU,2021-09-15 16:32:04,56.3109,66.2693,61.61,49,87,7.99,overcast clouds,0,0
456,Coahuayana,MX,2021-09-15 16:32:05,18.7333,-103.6833,85.48,63,28,1.61,scattered clouds,0,0
457,Mareeba,AU,2021-09-15 16:32:05,-17.0,145.4333,63.32,96,20,2.77,few clouds,0,0
458,Hamilton,US,2021-09-15 16:27:36,39.1834,-84.5333,75.11,91,90,1.01,overcast clouds,0,0
459,Potenza,IT,2021-09-15 16:32:06,40.6443,15.8086,78.64,43,93,3.27,overcast clouds,0,0
460,Tocopilla,CL,2021-09-15 16:30:24,-22.092,-70.1979,64.78,66,69,10.07,broken clouds,0,0
461,Charters Towers,AU,2021-09-15 16:32:06,-20.1,146.2667,58.46,76,4,7.05,clear sky,0,0
462,Chipinge,ZW,2021-09-15 16:32:07,-20.1883,32.6236,74.39,34,1,6.64,clear sky,0,0
463,Grand Gaube,MU,2021-09-15 16:32:07,-20.0064,57.6608,72.0,81,14,3.0,few clouds,0,0
464,Vershino-Darasunskiy,RU,2021-09-15 16:32:08,52.35,115.5167,37.29,68,1,6.46,clear sky,0,0
465,Beihai,CN,2021-09-15 16:32:08,21.4833,109.1,81.5,77,91,0.29,light rain,0,0
466,Puerto Madryn,AR,2021-09-15 16:32:09,-42.7692,-65.0385,63.25,31,5,25.97,clear sky,0,0
467,Yigou,CN,2021-09-15 16:32:09,35.8114,114.3167,67.95,72,14,1.99,light rain,0,0
468,Sayyan,YE,2021-09-15 16:32:09,15.1718,44.3244,70.39,25,96,7.18,overcast clouds,0,0
469,Shenjiamen,CN,2021-09-15 16:32:10,29.9576,122.298,75.99,90,100,21.97,overcast clouds,0,0
470,Bembereke,BJ,2021-09-15 16:32:10,10.2283,2.6634,76.6,89,94,3.78,moderate rain,0,0
471,Balangiga,PH,2021-09-15 16:32:11,11.1097,125.3875,78.76,82,100,2.91,overcast clouds,0,0
472,Tabou,CI,2021-09-15 16:32:11,4.423,-7.3528,74.48,93,100,9.26,moderate rain,0,0
473,Nioro,GM,2021-09-15 16:32:12,13.35,-15.75,87.84,66,47,6.33,scattered clouds,0,0
474,Gisborne,NZ,2021-09-15 16:32:12,-38.6533,178.0042,49.95,96,100,0.78,light rain,0,0
475,Ponte De Sor,PT,2021-09-15 16:32:12,39.2496,-8.0101,76.98,56,73,6.76,broken clouds,0,0
476,Thunder Bay,CA,2021-09-15 16:32:13,48.4001,-89.3168,66.56,63,20,4.61,few clouds,0,0
477,Santa Isabel Do Rio Negro,BR,2021-09-15 16:32:13,-0.4139,-65.0192,93.97,43,54,3.31,broken clouds,0,0
478,Hervey Bay,AU,2021-09-15 16:32:14,-25.2986,152.8535,56.03,79,1,8.79,clear sky,0,0
479,Lampang,TH,2021-09-15 16:32:14,18.3333,99.5,73.98,98,100,1.01,overcast clouds,0,0
480,Yining,CN,2021-09-15 16:32:15,29.0361,114.5636,66.29,83,1,1.86,light rain,0,0
481,Matara,LK,2021-09-15 16:32:15,5.9485,80.5353,78.53,88,24,8.95,few clouds,0,0
482,Ligayan,PH,2021-09-15 16:32:16,4.6533,119.4706,83.43,70,49,4.97,scattered clouds,0,0
483,Zharkent,KZ,2021-09-15 16:32:16,44.1628,80.0,68.27,26,24,2.19,few clouds,0,0
484,Morros,BR,2021-09-15 16:32:16,-9.4467,-46.3003,101.88,12,3,9.51,clear sky,0,0
485,Belyy Yar,RU,2021-09-15 16:32:17,53.6039,91.3903,55.29,67,0,2.24,clear sky,0,0
486,Pathein,MM,2021-09-15 16:32:17,16.7833,94.7333,76.33,95,100,4.41,overcast clouds,0,0
487,Kainantu,PG,2021-09-15 16:32:18,-6.2887,145.8655,55.92,96,100,2.51,overcast clouds,0,0
488,Fuerte Olimpo,PY,2021-09-15 16:32:18,-21.0415,-57.8738,88.05,42,91,8.93,overcast clouds,0,0
489,Angola,AO,2021-09-15 16:32:18,-12.5,18.5,78.53,32,87,4.05,overcast clouds,0,0
490,Nkhata Bay,MW,2021-09-15 16:32:19,-11.6066,34.2907,76.59,56,24,4.52,few clouds,0,0
491,Buchanan,LR,2021-09-15 16:32:19,5.8808,-10.0467,75.97,88,100,8.46,light rain,0,0
492,Hirara,JP,2021-09-15 16:32:19,24.8,125.2833,82.0,79,27,7.74,scattered clouds,0,0
493,Awjilah,LY,2021-09-15 16:32:20,29.1081,21.2869,84.63,24,0,8.9,clear sky,0,0
494,Yarkovo,RU,2021-09-15 16:32:20,57.4028,67.0786,56.68,63,100,6.13,overcast clouds,0,0
495,Owando,CG,2021-09-15 16:32:20,-0.4819,15.8999,80.74,70,100,3.06,overcast clouds,0,0
496,Binika,IN,2021-09-15 16:32:21,21.0333,83.8,78.03,92,98,5.14,overcast clouds,0,0
497,Viedma,AR,2021-09-15 16:32:21,-40.8135,-62.9967,67.93,21,9,15.77,clear sky,0,0
498,Samarai,PG,2021-09-15 16:32:22,-10.6167,150.6667,77.85,79,99,17.92,overcast clouds,0,0
499,Karwar,IN,2021-09-15 16:32:22,14.8,74.1333,77.54,86,72,3.94,broken clouds,0,0
500,Kletskaya,RU,2021-09-15 16:32:22,49.3145,43.0584,60.6,34,1,7.52,clear sky,0,0
501,Bolivar,US,2021-09-15 16:31:53,37.6145,-93.4105,79.83,76,64,10.6,broken clouds,0,0
502,Harper,LR,2021-09-15 16:32:23,4.375,-7.7169,74.64,92,100,9.53,moderate rain,0,0
503,Cruzeiro Do Sul,BR,2021-09-15 16:32:23,-29.5128,-51.9853,69.53,46,2,3.15,clear sky,0,0
504,Kologriv,RU,2021-09-15 16:32:24,58.8275,44.3178,40.6,93,100,8.1,overcast clouds,0,0
505,Prince Rupert,CA,2021-09-15 16:30:39,54.3161,-130.3201,53.29,85,90,2.3,overcast clouds,0,0
506,Matata,NZ,2021-09-15 16:32:24,-37.8833,176.75,57.85,99,100,5.79,light rain,0,0
507,Bethanien,NA,2021-09-15 16:32:24,-26.502,17.1583,61.9,21,0,10.13,clear sky,0,0
508,Abha,SA,2021-09-15 16:32:25,18.2164,42.5053,75.02,29,20,6.91,few clouds,0,0
509,Buala,SB,2021-09-15 16:27:49,-8.145,159.5921,78.62,82,96,4.92,light rain,0,0
510,Carballo,ES,2021-09-15 16:32:26,43.213,-8.691,75.06,80,30,7.81,scattered clouds,0,0
511,Santa Lucia,ES,2021-09-15 16:32:26,27.9117,-15.5407,73.11,70,40,25.32,scattered clouds,0,0
512,Letlhakeng,BW,2021-09-15 16:32:26,-24.0944,25.0298,76.59,14,0,8.99,clear sky,0,0
513,Puerto Del Rosario,ES,2021-09-15 16:32:27,28.5004,-13.8627,82.08,69,40,17.27,scattered clouds,0,0
514,Valentin Gomez Farias,MX,2021-09-15 16:32:27,28.2167,-106.5833,78.64,29,11,3.65,few clouds,0,0
515,Eregli,TR,2021-09-15 16:32:27,37.5133,34.0467,62.51,72,74,3.83,broken clouds,0,0
516,Kyaikto,MM,2021-09-15 16:32:28,17.3,97.0167,77.16,94,100,4.05,overcast clouds,0,0
517,Tiznit,MA,2021-09-15 16:32:28,29.5833,-9.5,70.75,62,2,13.24,clear sky,0,0
518,Kidal,ML,2021-09-15 16:32:29,18.4411,1.4078,98.28,22,52,5.86,broken clouds,0,0
519,Rastolita,RO,2021-09-15 16:32:29,46.9726,24.9929,62.2,71,8,3.65,clear sky,0,0
520,Morgan City,US,2021-09-15 16:32:29,29.6994,-91.2068,84.2,84,75,10.36,broken clouds,0,0
521,Vanavara,RU,2021-09-15 16:32:30,60.34,102.2797,36.52,97,94,3.67,overcast clouds,0,0
522,Siguiri,GN,2021-09-15 16:32:30,11.6667,-9.5,81.52,79,93,0.83,light rain,0,0
523,Manturovo,RU,2021-09-15 16:32:30,58.3353,44.7619,43.59,80,99,7.74,overcast clouds,0,0
524,Port Hawkesbury,CA,2021-09-15 16:28:19,45.6169,-61.3485,65.59,70,90,5.01,overcast clouds,0,0
525,Chapais,CA,2021-09-15 16:32:31,49.7834,-74.8492,51.58,81,96,9.04,overcast clouds,0,0
526,Cascais,PT,2021-09-15 16:32:22,38.6979,-9.4215,76.86,68,20,5.01,few clouds,0,0
527,Cerrito,CO,2021-09-15 16:32:32,6.8432,-72.694,58.39,64,17,2.26,few clouds,0,0
528,Victor Harbor,AU,2021-09-15 16:32:32,-35.5667,138.6167,54.72,85,2,8.08,clear sky,0,0
529,Havre-Saint-Pierre,CA,2021-09-15 16:32:33,50.2334,-63.5986,48.56,100,90,9.22,mist,0,0
530,Neiafu,TO,2021-09-15 16:32:33,-18.65,-173.9833,75.88,94,40,4.61,scattered clouds,0,0
531,Port Hedland,AU,2021-09-15 16:32:34,-20.3167,118.5667,73.45,68,9,11.5,clear sky,0,0
532,Vilshofen,DE,2021-09-15 16:32:34,48.6333,13.1833,72.18,87,100,3.47,light rain,0,0
533,Acarau,BR,2021-09-15 16:32:35,-2.8856,-40.12,87.96,59,7,21.43,clear sky,0,0
534,Takoradi,GH,2021-09-15 16:32:35,4.8845,-1.7554,76.39,89,100,9.46,light rain,0,0
535,Shahreza,IR,2021-09-15 16:32:35,32.0339,51.8794,73.2,7,0,6.38,clear sky,0,0
536,Nantucket,US,2021-09-15 16:32:36,41.2835,-70.0995,81.97,87,51,18.45,broken clouds,0,0
537,Biak,ID,2021-09-15 16:32:36,-0.9131,122.8766,74.21,87,77,3.58,broken clouds,0,0
538,Constitucion,CL,2021-09-15 16:32:37,-35.3333,-72.4167,58.77,52,2,11.81,clear sky,0,0
539,Ternate,ID,2021-09-15 16:32:37,0.8,127.4,79.57,79,40,3.8,light rain,0,0
540,Namtsy,RU,2021-09-15 16:32:37,62.7161,129.6658,53.71,68,100,8.9,overcast clouds,0,0
541,Khandyga,RU,2021-09-15 16:32:38,62.6667,135.6,43.23,93,43,3.06,scattered clouds,0,0
542,Kutum,SD,2021-09-15 16:32:38,14.2,24.6667,86.11,21,21,9.1,few clouds,0,0
543,Laguna,US,2021-09-15 16:32:18,38.421,-121.4238,85.64,71,1,3.0,smoke,0,0
544,Shahrud,IR,2021-09-15 16:32:39,36.4182,54.9763,77.34,24,0,4.09,clear sky,0,0
545,Januaria,BR,2021-09-15 16:32:39,-15.4833,-44.3667,100.49,13,0,6.96,clear sky,0,0
546,Boende,CD,2021-09-15 16:32:39,-0.2167,20.8667,80.13,66,97,2.37,overcast clouds,0,0
547,Cedar City,US,2021-09-15 16:32:40,37.6775,-113.0619,80.4,23,1,0.0,clear sky,0,0
548,Kurchum,KZ,2021-09-15 16:32:40,48.5722,83.6542,61.3,19,98,6.62,overcast clouds,0,0
549,Zavodouspenskoye,RU,2021-09-15 16:32:40,56.8626,65.0155,61.02,63,100,4.18,overcast clouds,0,0
550,Namatanai,PG,2021-09-15 16:32:41,-3.6667,152.4333,77.27,85,100,5.7,overcast clouds,0,0
